[
  {
    "district": "Центральный район",
    "name": "Центральная городская библиотека",
    "address": "Чайковского, 4",
    "lat": 43.5934332,
    "lng": 39.7195425,
    "query": "Чайковского, 4, Центральный район, Сочи, Краснодарский край, Россия",
    "display_name": "4, улица Чайковского, Кладбон, Навагинская, Центральный внутригородской район, Сочи, городской округ Сочи, Краснодарский край, Южный федеральный округ, 354000, Россия",
    "venue_type": "library",
    "access_type": "free"
  },
  {
    "district": "Центральный район",
    "name": "Продуктовый магазин",
    "address": "Гагарина, 73",
    "lat": 43.6123577,
    "lng": 39.7314097,
    "query": "Гагарина, 73, Центральный район, Сочи, Краснодарский край, Россия",
    "display_name": "73, улица Гагарина, 1963 км., Центральный внутригородской район, Сочи, городской округ Сочи, Краснодарский край, 354065, Россия",
    "venue_type": "other",
    "access_type": "customer_only"
  },
  {
    "district": "Центральный район",
    "name": "Библиотека им. Пушкина",
    "address": "Приморская, 1",
    "lat": 43.5755846,
    "lng": 39.7251933,
    "query": "Приморская, 1, Центральный район, Сочи, Краснодарский край, Россия",
    "display_name": "Библиотека имени А. С. Пушкина, 1, Приморская улица, Яруса, Центральный внутригородской район, Сочи, городской округ Сочи, Краснодарский край, Южный федеральный округ, 354000, Россия",
    "venue_type": "library",
    "access_type": "free"
  },
  {
    "district": "Центральный район",
    "name": "ТЦ MoreMall",
    "address": "Новая Заря, 7",
    "lat": 43.606074,
    "lng": 39.7323211,
    "query": "Новая Заря, 7, Центральный район, Сочи, Краснодарский край, Россия",
    "display_name": "7, улица Новая Заря, Шанхай, Центральный внутригородской район, Сочи, городской округ Сочи, Краснодарский край, 354000, Россия",
    "venue_type": "other",
    "access_type": "customer_only"
  },
  {
    "district": "Центральный район",
    "name": "ЖД вокзал Сочи",
    "address": "Горького, 56",
    "lat": 43.5913197,
    "lng": 39.7268406,
    "query": "Горького, 56, Центральный район, Сочи, Краснодарский край, Россия",
    "display_name": "56/7, улица Горького, Кладбон, ЦУМ, Центральный внутригородской район, Сочи, городской округ Сочи, Краснодарский край, 354000, Россия",
    "venue_type": "other",
    "access_type": "free"
  },
  {
    "district": "Центральный район",
    "name": "Библиотека семейного чтения №2",
    "address": "Донская, 92",
    "lat": 43.6234975,
    "lng": 39.7219469,
    "query": "Донская, 92, Центральный район, Сочи, Краснодарский край, Россия",
    "display_name": "92, Донская улица, Донская, Центральный внутригородской район, Сочи, городской округ Сочи, Краснодарский край, 354068, Россия",
    "venue_type": "library",
    "access_type": "free"
  },
  {
    "district": "Центральный район",
    "name": "Библиотека-филиал",
    "address": "Советская, 40",
    "lat": 43.5862343,
    "lng": 39.7241756,
    "query": "Советская, 40, Центральный район, Сочи, Краснодарский край, Россия",
    "display_name": "40, Советская улица, Навагинская, Центральный внутригородской район, Сочи, городской округ Сочи, Краснодарский край, Южный федеральный округ, 354000, Россия",
    "venue_type": "library",
    "access_type": "free"
  },
  {
    "district": "Центральный район",
    "name": "Café Friends",
    "address": "Горького, 44",
    "lat": 43.5873147,
    "lng": 39.7268609,
    "query": "Горького, 44, Центральный район, Сочи, Краснодарский край, Россия",
    "display_name": "44, улица Горького, Кладбон, ЦУМ, Центральный внутригородской район, Сочи, городской округ Сочи, Краснодарский край, 354000, Россия",
    "venue_type": "other",
    "access_type": "unknown"
  },
  {
    "district": "Центральный район",
    "name": "MANGAL Café",
    "address": "Орджоникидзе, 5А",
    "lat": 43.5742456,
    "lng": 39.7299575,
    "query": "Орджоникидзе, 5А, Центральный район, Сочи, Краснодарский край, Россия",
    "display_name": "улица Орджоникидзе, Театральная, Центральный внутригородской район, Сочи, городской округ Сочи, Краснодарский край, 354000, Россия",
    "venue_type": "cafe",
    "access_type": "customer_only"
  },
  {
    "district": "Центральный район",
    "name": "REZZO",
    "address": "Юных Ленинцев, 2",
    "lat": 43.5961265,
    "lng": 39.7280142,
    "query": "Юных Ленинцев, 2, Центральный район, Сочи, Краснодарский край, Россия",
    "display_name": "10/2, улица Юных Ленинцев, Кладбон, ТЗБ, Центральный внутригородской район, Сочи, городской округ Сочи, Краснодарский край, 354000, Россия",
    "venue_type": "cafe",
    "access_type": "customer_only"
  },
  {
    "district": "Центральный район",
    "name": "Сливки",
    "address": "Горького, 30/2",
    "lat": 43.585209,
    "lng": 39.7247875,
    "query": "Горького, 30/2, Центральный район, Сочи, Краснодарский край, Россия",
    "display_name": "30/2, улица Горького, Навагинская, Центральный внутригородской район, Сочи, городской округ Сочи, Краснодарский край, Южный федеральный округ, 354000, Россия",
    "venue_type": "cafe",
    "access_type": "customer_only"
  },
  {
    "district": "Центральный район",
    "name": "Это Он",
    "address": "Чайковского, 27/2",
    "lat": 43.6002544,
    "lng": 39.7290037,
    "query": "Чайковского, 27/2, Центральный район, Сочи, Краснодарский край, Россия",
    "display_name": "27/2, улица Чайковского, ЦАРМ, Центральный внутригородской район, Сочи, городской округ Сочи, Краснодарский край, 354065, Россия",
    "venue_type": "other",
    "access_type": "unknown"
  },
  {
    "district": "Центральный район",
    "name": "Lale Istanbul Café",
    "address": "Роз, 36",
    "lat": 43.5893767,
    "lng": 39.7205674,
    "query": "Роз, 36, Центральный район, Сочи, Краснодарский край, Россия",
    "display_name": "ЖК \"Rose Del Mare\", 36, улица Роз, Кладбон, Навагинская, Центральный внутригородской район, Сочи, городской округ Сочи, Краснодарский край, 354000, Россия",
    "venue_type": "other",
    "access_type": "unknown"
  },
  {
    "district": "Центральный район",
    "name": "STARS Coffee",
    "address": "Приморская, 3/10",
    "lat": 43.5775677,
    "lng": 39.7219577,
    "query": "Приморская, 3/10, Центральный район, Сочи, Краснодарский край, Россия",
    "display_name": "3/10, Приморская улица, Яруса, Центральный внутригородской район, Сочи, городской округ Сочи, Краснодарский край, 354000, Россия",
    "venue_type": "cafe",
    "access_type": "customer_only"
  },
  {
    "district": "Центральный район",
    "name": "Burgman",
    "address": "Орджоникидзе, 26а",
    "lat": 43.5759737,
    "lng": 39.7275972,
    "query": "Орджоникидзе, 26а, Центральный район, Сочи, Краснодарский край, Россия",
    "display_name": "улица Орджоникидзе, Гостиница Сочи, Центральный внутригородской район, Сочи, городской округ Сочи, Краснодарский край, 354000, Россия",
    "venue_type": "cafe",
    "access_type": "customer_only"
  },
  {
    "district": "Центральный район",
    "name": "Кофефорния",
    "address": "Парковая, 42а",
    "lat": 43.5849048,
    "lng": 39.7228519,
    "query": "Парковая, 42а, Центральный район, Сочи, Краснодарский край, Россия",
    "display_name": "Парковая улица, Мелодия, Центральный внутригородской район, Сочи, городской округ Сочи, Краснодарский край, 354000, Россия",
    "venue_type": "cafe",
    "access_type": "customer_only"
  },
  {
    "district": "Центральный район",
    "name": "Мидийный дом",
    "address": "Приморская, 3/7",
    "lat": 43.5772347,
    "lng": 39.7219234,
    "query": "Приморская, 3/7, Центральный район, Сочи, Краснодарский край, Россия",
    "display_name": "3/7, Приморская улица, Яруса, Центральный внутригородской район, Сочи, городской округ Сочи, Краснодарский край, 354000, Россия",
    "venue_type": "cafe",
    "access_type": "customer_only"
  },
  {
    "district": "Центральный район",
    "name": "Ainos Сувлачная",
    "address": "Воровского, 37",
    "lat": 43.5894148,
    "lng": 39.7218813,
    "query": "Воровского, 37, Центральный район, Сочи, Краснодарский край, Россия",
    "display_name": "37, улица Воровского, Кладбон, Главпочтамт, Центральный внутригородской район, Сочи, городской округ Сочи, Краснодарский край, 354000, Россия",
    "venue_type": "cafe",
    "access_type": "customer_only"
  },
  {
    "district": "Центральный район",
    "name": "Кафе Панда",
    "address": "Островского",
    "lat": 43.5890657,
    "lng": 39.7237976,
    "query": "Островского, Центральный район, Сочи, Краснодарский край, Россия",
    "display_name": "улица Островского, Кладбон, Навагинская, Центральный внутригородской район, Сочи, городской округ Сочи, Краснодарский край, 354000, Россия",
    "venue_type": "cafe",
    "access_type": "customer_only"
  },
  {
    "district": "Центральный район",
    "name": "Кафе на Альпийской",
    "address": "Альпийская, 39",
    "lat": 43.5931169,
    "lng": 39.7414412,
    "query": "Альпийская, 39, Центральный район, Сочи, Краснодарский край, Россия",
    "display_name": "39, Альпийская улица, Гаражи, Центральный внутригородской район, Сочи, городской округ Сочи, Краснодарский край, 354057, Россия",
    "venue_type": "cafe",
    "access_type": "customer_only"
  },
  {
    "district": "Центральный район",
    "name": "Кафе на Донском переулке",
    "address": "Донской переулок, 11/1 к5",
    "lat": 43.6271412,
    "lng": 39.7262712,
    "query": "Донской переулок, 11/1 к5, Центральный район, Сочи, Краснодарский край, Россия",
    "display_name": "11/1К5, Донской переулок, Пасечная, Центральный внутригородской район, Сочи, городской округ Сочи, Краснодарский край, Южный федеральный округ, 354068, Россия",
    "venue_type": "cafe",
    "access_type": "customer_only"
  },
  {
    "district": "Центральный район",
    "name": "Surf Coffee",
    "address": "Курортный проспект, 19",
    "lat": 43.5817284,
    "lng": 39.7213322,
    "query": "Курортный проспект, 19, Центральный район, Сочи, Краснодарский край, Россия",
    "display_name": "19, Курортный проспект, Мелодия, Центральный внутригородской район, Сочи, городской округ Сочи, Краснодарский край, 354009, Россия",
    "venue_type": "cafe",
    "access_type": "customer_only"
  },
  {
    "district": "Центральный район",
    "name": "ТЦ СанСити",
    "address": "Северная, 6",
    "lat": 43.5943629,
    "lng": 39.7272307,
    "query": "Северная, 6, Центральный район, Сочи, Краснодарский край, Россия",
    "display_name": "ТЦ \"Sun City\", 6, Северная улица, Кладбон, ЦУМ, Центральный внутригородской район, Сочи, городской округ Сочи, Краснодарский край, Южный федеральный округ, 354000, Россия",
    "venue_type": "other",
    "access_type": "customer_only"
  },
  {
    "district": "Адлерский район",
    "name": "ЖД вокзал Адлер",
    "address": "Ленина, 113",
    "lat": 43.4466764,
    "lng": 39.904035,
    "query": "Ленина, 113, Адлерский район, Сочи, Краснодарский край, Россия",
    "display_name": "Адлер, 113, улица Ленина, Голубые Дали, Адлер, Адлерский внутригородской район, Сочи, городской округ Сочи, Краснодарский край, 354340, Россия",
    "venue_type": "other",
    "access_type": "free"
  },
  {
    "district": "Адлерский район",
    "name": "Библиотека-филиал №1",
    "address": "Волоколамская, 44",
    "lat": 43.6800456,
    "lng": 40.2048725,
    "query": "Волоколамская, 44, Адлерский район, Сочи, Краснодарский край, Россия",
    "display_name": "44, Волоколамская улица, Красная Поляна, Адлерский внутригородской район, городской округ Сочи, Краснодарский край, 354392, Россия",
    "venue_type": "library",
    "access_type": "free"
  },
  {
    "district": "Адлерский район",
    "name": "Wi-Fi точка",
    "address": "Просвещения, 122 к2",
    "lat": 43.4440524,
    "lng": 39.9050154,
    "query": "Просвещения, 122 к2, Адлерский район, Сочи, Краснодарский край, Россия",
    "display_name": "улица Просвещения, Адлер, Адлерский внутригородской район, Сочи, городской округ Сочи, Краснодарский край, 354340, Россия",
    "venue_type": "other",
    "access_type": "free"
  },
  {
    "district": "Адлерский район",
    "name": "Wi-Fi точка",
    "address": "Голубые Дали, 18Б",
    "lat": 43.4543749,
    "lng": 39.9073258,
    "query": "Голубые Дали, 18Б, Адлерский район, Сочи, Краснодарский край, Россия",
    "display_name": "Голубые Дали, Адлер, Адлерский внутригородской район, Сочи, городской округ Сочи, Краснодарский край, Южный федеральный округ, 354382, Россия",
    "venue_type": "other",
    "access_type": "free"
  },
  {
    "district": "Адлерский район",
    "name": "Южная столовая",
    "address": "Станиславского, 3",
    "venue_type": "cafe",
    "access_type": "customer_only",
    "lat": 43.4230032,
    "lng": 39.9303824,
    "query": "улица Станиславского, 3, Сириус, Краснодарский край, Россия",
    "display_name": "3А, улица Станиславского, городской округ Сириус, Краснодарский край, Южный федеральный округ, 354350, Россия"
  },
  {
    "district": "Адлерский район",
    "name": "Кафе-столовая",
    "address": "Ленина, 181а",
    "lat": 43.4553135,
    "lng": 39.9035767,
    "query": "Ленина, 181а, Адлерский район, Сочи, Краснодарский край, Россия",
    "display_name": "181А, улица Ленина, Голубые Дали, Адлер, Адлерский внутригородской район, Сочи, городской округ Сочи, Краснодарский край, 354340, Россия",
    "venue_type": "cafe",
    "access_type": "customer_only"
  },
  {
    "district": "Адлерский район",
    "name": "Баден-Баден",
    "address": "Мира, 42",
    "lat": 43.4470826,
    "lng": 39.9310254,
    "query": "Мира, 42, Адлерский район, Сочи, Краснодарский край, Россия",
    "display_name": "БЦ \"Универсальный\", 42, улица Мира, Адлер, Адлерский внутригородской район, Сочи, городской округ Сочи, Краснодарский край, 354355, Россия",
    "venue_type": "other",
    "access_type": "unknown"
  },
  {
    "district": "Адлерский район",
    "name": "Домашняя кухня",
    "address": "Ленина, 181а",
    "lat": 43.4553135,
    "lng": 39.9035767,
    "query": "Ленина, 181а, Адлерский район, Сочи, Краснодарский край, Россия",
    "display_name": "181А, улица Ленина, Голубые Дали, Адлер, Адлерский внутригородской район, Сочи, городской округ Сочи, Краснодарский край, 354340, Россия",
    "venue_type": "cafe",
    "access_type": "customer_only"
  },
  {
    "district": "Адлерский район",
    "name": "Флора",
    "address": "Ленина, 219г",
    "lat": 43.4674004,
    "lng": 39.8996332,
    "query": "Ленина, 219г, Адлерский район, Сочи, Краснодарский край, Россия",
    "display_name": "219Г, улица Ленина, Адлер, Адлерский внутригородской район, Сочи, городской округ Сочи, Краснодарский край, 354340, Россия",
    "venue_type": "other",
    "access_type": "unknown"
  },
  {
    "district": "Адлерский район",
    "name": "Аэропорт",
    "address": "Мира, 50",
    "lat": 43.4480952,
    "lng": 39.9412557,
    "query": "Мира, 50, Адлерский район, Сочи, Краснодарский край, Россия",
    "display_name": "50, улица Мира, Адлер, Адлерский внутригородской район, Сочи, городской округ Сочи, Краснодарский край, 354340, Россия",
    "venue_type": "other",
    "access_type": "free"
  },
  {
    "district": "Хостинский район",
    "name": "МФЦ",
    "address": "Ясногорская, 16/7",
    "lat": 43.571813,
    "lng": 39.7671688,
    "query": "Ясногорская, 16/7, Хостинский район, Сочи, Краснодарский край, Россия",
    "display_name": "16/7, Ясногорская улица, Северная Бытха, Бытха, Хостинский внутригородской район, Сочи, городской округ Сочи, Краснодарский край, 354054, Россия",
    "venue_type": "other",
    "access_type": "free"
  },
  {
    "district": "Хостинский район",
    "name": "Библиотека №7",
    "address": "Ясногорская, 7",
    "lat": 43.5680556,
    "lng": 39.7625197,
    "query": "Ясногорская, 7, Хостинский район, Сочи, Краснодарский край, Россия",
    "display_name": "7, Ясногорская улица, Аэлита, Бытха, Хостинский внутригородской район, Сочи, городской округ Сочи, Краснодарский край, 354054, Россия",
    "venue_type": "library",
    "access_type": "free"
  },
  {
    "district": "Хостинский район",
    "name": "Библиотека №6",
    "address": "Дарвина, 82",
    "lat": 43.5024187,
    "lng": 39.890961,
    "query": "Дарвина, 82, Хостинский район, Сочи, Краснодарский край, Россия",
    "display_name": "82, улица Дарвина, Кудепстинское лесничество, Кудепста, Хостинский внутригородской район, Сочи, городской округ Сочи, Краснодарский край, 354066, Россия",
    "venue_type": "library",
    "access_type": "free"
  },
  {
    "district": "Хостинский район",
    "name": "Библиотека №5",
    "address": "50 лет СССР, 12",
    "lat": 43.5131985,
    "lng": 39.8726072,
    "query": "50 лет СССР, 12, Хостинский район, Сочи, Краснодарский край, Россия",
    "display_name": "12, улица 50 лет СССР, Рассвет, Хоста, Хостинский внутригородской район, Сочи, городской округ Сочи, Краснодарский край, 354037, Россия",
    "venue_type": "library",
    "access_type": "free"
  },
  {
    "district": "Лазаревский район",
    "name": "Районная библиотека",
    "address": "Победы, 62",
    "lat": 43.9110629,
    "lng": 39.3295676,
    "query": "Районная библиотека, Победы, 62, Лазаревский район, Сочи, Краснодарский край, Россия",
    "display_name": "Центральная районная библиотека им.А.И.Одоевского, 62, улица Победы, Лазаревское, Лазаревский внутригородской район, Сочи, городской округ Сочи, Краснодарский край, 354200, Россия",
    "venue_type": "library",
    "access_type": "free"
  },
  {
    "district": "Лазаревский район",
    "name": "Библиотека №3",
    "address": "Батумское шоссе, 10",
    "lat": 43.6606294,
    "lng": 39.6833384,
    "query": "Батумское шоссе, 10, Лазаревский район, Сочи, Краснодарский край, Россия",
    "display_name": "62/10, Батумское шоссе, Шаумяновка, Лазаревский внутригородской район, Сочи, городской округ Сочи, Краснодарский край, 354207, Россия",
    "venue_type": "library",
    "access_type": "free"
  },
  {
    "district": "Лазаревский район",
    "name": "ЖД вокзал",
    "address": "Победы, 2",
    "lat": 43.6486918,
    "lng": 39.7003225,
    "query": "Победы, 2, Лазаревский район, Сочи, Краснодарский край, Россия",
    "display_name": "2, СТ \"40 лет Победы\", 73-й километр, Шаумяновка, Лазаревский внутригородской район, Сочи, городской округ Сочи, Краснодарский край, 354207, Россия",
    "venue_type": "other",
    "access_type": "free"
  },
  {
    "district": "Лазаревский район",
    "name": "Кафе У моря",
    "address": "Победы, 178",
    "lat": 43.9436127,
    "lng": 39.3014557,
    "query": "Победы, 178, Лазаревский район, Сочи, Краснодарский край, Россия",
    "display_name": "улица Победы, Лазаревское, Лазаревский внутригородской район, Сочи, городской округ Сочи, Краснодарский край, Южный федеральный округ, 354200, Россия",
    "venue_type": "cafe",
    "access_type": "customer_only"
  },
  {
    "district": "Лазаревский район",
    "name": "Столовая Нептун",
    "address": "Сочинское шоссе, 4",
    "lat": 43.901716,
    "lng": 39.341042,
    "query": "Сочинское шоссе, 4, Лазаревский район, Сочи, Краснодарский край, Россия",
    "display_name": "4, Сочинское шоссе, Лазаревское, Лазаревский внутригородской район, Сочи, городской округ Сочи, Краснодарский край, 354200, Россия",
    "venue_type": "cafe",
    "access_type": "customer_only"
  },
  {
    "district": "Лазаревский район",
    "name": "Кафе Дача",
    "address": "Калараш, 8",
    "venue_type": "cafe",
    "access_type": "customer_only",
    "lat": 43.9045962,
    "lng": 39.32952,
    "query": "улица Калараша, 8, Лазаревское, Сочи, Россия",
    "display_name": "Анастасия, 8, улица Калараша, Лазаревское, Лазаревский внутригородской район, Сочи, городской округ Сочи, Краснодарский край, Южный федеральный округ, 354200, Россия"
  },
  {
    "district": "Лазаревский район",
    "name": "Кафе Уют",
    "address": "Победы, 59",
    "lat": 43.917848,
    "lng": 39.3208538,
    "query": "Победы, 59, Лазаревский район, Сочи, Краснодарский край, Россия",
    "display_name": "улица Победы, Лазаревское, Лазаревский внутригородской район, Сочи, городской округ Сочи, Краснодарский край, 354200, Россия",
    "venue_type": "cafe",
    "access_type": "customer_only"
  },
  {
    "district": "Сириус",
    "name": "Парк науки и искусства",
    "address": "Олимпийский проспект, 1",
    "venue_type": "other",
    "access_type": "free",
    "lat": 43.4143588,
    "lng": 39.9510234,
    "query": "Парк науки и искусства Сириус",
    "display_name": "Парк науки и искусства \"Сириус\", 1, Олимпийский проспект, Сириус, Краснодарский край, 354354, Россия"
  },
  {
    "district": "Сириус",
    "name": "Университет",
    "address": "Олимпийский проспект, 1",
    "venue_type": "other",
    "access_type": "free",
    "lat": 43.414074,
    "lng": 39.9491102,
    "query": "Университет Сириус",
    "display_name": "Научно-технологический университет Сириус, 1, Олимпийский проспект, городской округ Сириус, Краснодарский край, 354383, Россия"
  },
  {
    "district": "Сириус",
    "name": "Булочная",
    "address": "Олимпийский проспект, 36/7",
    "venue_type": "cafe",
    "access_type": "customer_only",
    "lat": 43.4006631,
    "lng": 39.9767288,
    "query": "Олимпийский проспект, 36/7, Сириус, Краснодарский край, Россия",
    "display_name": "Олимпийский проспект, Нижнеимеретинская Бухта, городской округ Сириус, Краснодарский край, Южный федеральный округ, 354349, Россия"
  },
  {
    "district": "Сириус",
    "name": "Кафе Пир",
    "address": "Таврическая, 15а",
    "venue_type": "cafe",
    "access_type": "customer_only",
    "lat": 43.3964611,
    "lng": 39.9913623,
    "query": "Таврическая, 15а, Сириус, Краснодарский край, Россия",
    "display_name": "Таврическая улица, Нижнеимеретинская Бухта, городской округ Сириус, Краснодарский край, Южный федеральный округ, 254367, Россия"
  },
  {
    "district": "Сириус",
    "name": "Кофейня Surf Coffee",
    "address": "Нижнеимеретинская",
    "venue_type": "cafe",
    "access_type": "customer_only",
    "lat": 43.3955143,
    "lng": 39.972991,
    "query": "Surf Coffee Нижнеимеретинская Сириус",
    "display_name": "Surf Coffee, 173, Нижнеимеретинская улица, Сочи, Краснодарский край, Южный федеральный округ, 354349, Россия"
  },
  {
    "district": "Сириус",
    "name": "Сириус Парк",
    "address": "Олимпийский проспект, 24",
    "venue_type": "other",
    "access_type": "unknown",
    "lat": 43.399501,
    "lng": 39.9801985,
    "query": "Олимпийский проспект, 24, Сириус, Краснодарский край, Россия",
    "display_name": "Олимпийский проспект, Нижнеимеретинская Бухта, городской округ Сириус, Краснодарский край, 354349, Россия"
  },
  {
    "district": "Сириус",
    "name": "Кофейня Bloom",
    "address": "Хоккейная, 2",
    "venue_type": "cafe",
    "access_type": "customer_only",
    "lat": 43.3955178,
    "lng": 39.9981134,
    "query": "Хоккейная, 2, Сириус, Краснодарский край, Россия",
    "display_name": "Хоккейная улица, городской округ Сириус, Краснодарский край, 254375, Россия"
  },
  {
    "district": "Сириус",
    "name": "Кафе Мама Луна",
    "address": "Воскресенская, 1",
    "venue_type": "cafe",
    "access_type": "customer_only",
    "lat": 43.3959464,
    "lng": 39.9736882,
    "query": "Воскресенская, 1, Сириус, Краснодарский край, Россия",
    "display_name": "1А, Воскресенская улица, Нижнеимеретинская Бухта, городской округ Сириус, Краснодарский край, Южный федеральный округ, 354349, Россия"
  },
  {
    "district": "Сириус",
    "name": "Столовая Олимп",
    "address": "Парусная, 10",
    "venue_type": "cafe",
    "access_type": "customer_only",
    "lat": 43.4078063,
    "lng": 39.9423925,
    "query": "Парусная, 10, Сириус, Краснодарский край, Россия",
    "display_name": "OE 5.8, 10, Парусная улица, Нижнеимеретинская бухта, Сириус, Краснодарский край, 354383, Россия"
  },
  {
    "district": "Сириус",
    "name": "5642 Высота",
    "address": "65 лет Победы, 50",
    "venue_type": "cafe",
    "access_type": "customer_only",
    "lat": 43.3929489,
    "lng": 39.9763629,
    "query": "5642 Высота 65 лет Победы 50 Сириус",
    "display_name": "Высота 5642, 50 с1, улица 65 лет Победы, Нижнеимеретинская Бухта, городской округ Сириус, Краснодарский край, 354349, Россия"
  }
]